,City,Cloudiness,Country,Date,Humidity,Lat,Lng,Max Temp,Wind Speed
0,Mataura,92,NZ,1546739317,94,-46.19,168.86,58.07,8.3
1,Kolosovka,56,RU,1546739643,80,56.47,73.61,10.64,11.99
2,Half Moon Bay,90,US,1546738800,81,37.46,-122.43,55.94,10.29
3,Albany,40,US,1546737420,81,42.65,-73.75,35.6,4.7
4,Perehonivka,90,UA,1546738200,92,49.98,30.49,23.0,6.71
5,Kapaa,40,US,1546736160,56,22.08,-159.32,82.04,12.75
6,Marand,40,IR,1546738200,86,38.43,45.77,26.6,2.24
7,Busselton,0,AU,1546739320,70,-33.64,115.35,78.95,5.95
8,Kahului,20,US,1546736160,52,20.89,-156.47,82.04,14.99
9,Hermanus,32,ZA,1546739327,99,-34.42,19.24,52.18,3.6
10,Butaritari,88,KI,1546739360,100,3.07,172.79,81.07,13.22
11,Kaitangata,92,NZ,1546739322,100,-46.28,169.85,55.6,9.42
12,Bairnsdale,12,AU,1546739645,75,-37.83,147.63,70.67,3.71
13,Airai,24,TL,1546739417,71,-8.93,125.41,83.95,2.26
14,Puro,56,PH,1546739646,76,13.13,123.76,79.99,13.78
15,Olinda,40,EC,1546736400,74,-2.03,-79.75,82.4,9.17
16,Provideniya,24,RU,1546739346,100,64.42,-173.23,0.88,28.66
17,Torbay,90,CA,1546737480,100,47.66,-52.73,32.0,8.05
18,Tuatapere,92,NZ,1546739535,91,-46.13,167.69,58.57,9.98
19,Abu Dhabi,0,AE,1546736400,93,24.47,54.37,64.4,4.7
20,Qiongshan,90,CN,1546736400,100,20.01,110.35,68.0,8.95
21,Chhapar,92,IN,1546739647,92,27.82,74.44,50.11,7.74
22,Cape Town,0,ZA,1546736400,77,-33.93,18.42,64.4,14.99
23,Port Alfred,76,ZA,1546739332,87,-33.59,26.89,66.44,10.76
24,Dikson,12,RU,1546739354,100,73.51,80.55,-6.69,16.02
25,Qaanaaq,8,GL,1546739330,85,77.48,-69.36,-2.91,6.96
26,Vostochnyy,90,RU,1546738200,92,55.82,37.87,19.4,4.47
27,Coquimbo,0,CL,1546736400,72,-29.95,-71.34,62.6,5.82
28,Rikitea,92,PF,1546739318,96,-23.12,-134.97,79.99,15.79
29,San Patricio,88,PY,1546739400,92,-26.98,-56.83,74.5,4.16
30,Monrovia,20,LR,1546738200,94,6.33,-10.8,75.2,2.26
31,Bereda,0,ES,1546738200,100,43.27,-7.54,30.2,5.82
32,Bluff,12,AU,1546739339,37,-23.58,149.07,94.03,10.76
33,Vaini,0,IN,1546736400,66,15.34,74.49,62.6,5.73
34,Sao Filipe,0,CV,1546739356,97,14.9,-24.5,73.06,11.21
35,Upernavik,0,GL,1546739334,95,72.79,-56.15,5.02,9.42
36,Punta Arenas,40,CL,1546736400,70,-53.16,-70.91,46.4,16.11
37,Tiksi,36,RU,1546739340,54,71.64,128.87,-18.88,7.18
38,San Lorenzo,36,HN,1546739651,66,13.43,-87.45,86.02,15.57
39,Cabo San Lucas,40,MX,1546735560,73,22.89,-109.91,71.6,4.7
40,Saint-Augustin,0,FR,1546736400,100,44.83,-0.61,30.2,3.36
41,Cobija,0,BR,1546739651,71,-11.02,-68.77,79.9,3.49
42,Vaitape,88,PF,1546739355,95,-16.52,-151.75,85.12,11.77
43,Vostok,44,RU,1546739355,60,46.45,135.83,0.29,4.38
44,Astoria,90,US,1546736100,79,46.19,-123.83,48.02,4.7
45,Utica,90,US,1546735980,81,43.1,-75.23,35.96,8.05
46,Tromso,75,NO,1546737600,86,69.65,18.96,39.2,19.46
47,Ende,36,ID,1546739653,100,-8.84,121.65,81.43,4.83
48,Arraial do Cabo,0,BR,1546739336,94,-22.97,-42.02,77.15,5.28
49,Qaqortoq,88,GL,1546739409,88,60.72,-46.03,30.58,15.46
50,Avarua,75,CK,1546736400,61,-21.21,-159.78,82.4,3.36
51,Adrar,0,DZ,1546736400,48,27.87,-0.29,42.8,10.29
52,Nikolskoye,75,RU,1546738200,79,59.7,30.79,19.4,4.47
53,Saskylakh,8,RU,1546739387,57,71.97,114.09,-32.79,3.15
54,Kassala,0,SD,1546739479,88,15.45,36.38,57.22,4.27
55,Fukue,75,JP,1546736400,45,35.03,136.69,44.6,13.87
56,Nattam,40,IN,1546738200,88,12.7,79.97,69.8,2.24
57,Port Blair,92,IN,1546739399,100,11.67,92.75,77.38,34.92
58,Ribeira Grande,92,PT,1546739341,100,38.52,-28.7,62.89,28.77
59,Payo,76,ID,1546739654,99,-3.75,103.64,78.5,2.26
60,Amazar,12,RU,1546739655,56,53.86,120.88,-20.91,2.37
61,Ambon,90,FR,1546736400,86,47.55,-2.56,39.2,3.36
62,Georgetown,20,GY,1546736400,94,6.8,-58.16,75.2,6.93
63,Bethel,20,US,1546737960,84,60.79,-161.76,8.6,8.05
64,Severo-Kurilsk,68,RU,1546739339,100,50.68,156.12,22.12,8.52
65,Hilo,40,US,1546735980,62,19.71,-155.08,77.0,10.29
66,Ponta do Sol,80,BR,1546739356,99,-20.63,-46.0,64.33,1.92
67,Jawhar,0,IN,1546739656,74,19.91,73.23,55.06,2.37
68,Sao Jose da Coroa Grande,88,BR,1546739656,93,-8.9,-35.15,76.93,4.94
69,Saldanha,0,PT,1546739373,71,41.42,-6.55,18.61,2.71
70,Chimbote,24,PE,1546739656,94,-9.08,-78.59,69.46,2.15
71,Vestmanna,76,FO,1546737600,70,62.16,-7.17,42.8,18.34
72,Ushuaia,40,AR,1546736400,53,-54.81,-68.31,50.0,9.17
73,Mahajanga,40,MG,1546736400,94,-15.72,46.32,77.0,6.93
74,Barrow,48,AR,1546739326,47,-38.31,-60.23,78.32,16.46
75,Sao Joao da Barra,36,BR,1546739476,95,-21.64,-41.05,80.57,19.26
76,Prince Rupert,90,CA,1546736400,93,54.32,-130.32,37.4,3.36
77,Yeppoon,40,AU,1546738200,55,-23.13,150.74,86.0,11.41
78,New Norfolk,40,AU,1546738200,35,-42.78,147.06,69.8,16.11
79,Hamilton,75,BM,1546737180,83,32.3,-64.78,73.4,29.97
80,Boyolangu,0,ID,1546739455,60,-8.09,111.9,87.14,3.6
81,Port Elizabeth,1,US,1546736160,92,39.31,-74.98,46.04,9.17
82,Alyangula,40,AU,1546736400,62,-13.85,136.42,89.6,8.05
83,Guerrero Negro,92,MX,1546739517,100,27.97,-114.04,53.57,3.71
84,Pangnirtung,80,CA,1546739325,78,66.15,-65.72,-8.35,7.07
85,Mahanoro,36,MG,1546739659,96,-19.9,48.8,75.62,2.93
86,Sakti,0,IN,1546739660,77,22.03,82.96,60.14,2.93
87,Beyneu,56,KZ,1546739660,94,45.32,55.19,21.94,7.85
88,Ibra,8,OM,1546739660,100,22.69,58.55,53.26,2.48
89,Longyearbyen,75,NO,1546735800,73,78.22,15.63,24.8,18.34
90,Saint George,20,GR,1546735800,92,39.45,22.34,28.4,4.7
91,La Ronge,5,CA,1546736400,91,55.1,-105.3,-7.61,4.7
92,Bangui,0,CF,1546736400,88,4.39,18.55,69.8,5.5
93,Starkville,1,US,1546738500,100,33.45,-88.82,48.92,2.59
94,Carnarvon,0,ZA,1546739336,50,-30.97,22.13,56.54,10.65
95,Pacific Grove,75,US,1546737600,82,36.62,-121.92,55.04,11.41
96,Stillwater,1,US,1546737300,90,36.12,-97.06,53.96,11.43
97,Luderitz,0,NA,1546739374,81,-26.65,15.16,58.48,13.67
98,Padang,56,ID,1546739455,100,-0.92,100.36,79.36,5.39
99,Griffith,0,AU,1546736400,24,-34.29,146.06,78.8,12.75
100,Staryy Nadym,20,RU,1546739493,75,65.61,72.68,-2.86,13.33
101,Green Valley,1,US,1546738500,80,40.41,-89.64,45.14,3.71
102,Chokurdakh,12,RU,1546739338,52,70.62,147.9,-30.81,3.71
103,Tarbes,40,FR,1546738200,86,43.23,0.08,30.2,4.7
104,Tasiilaq,5,GL,1546735800,79,65.61,-37.64,24.8,9.17
105,Havoysund,92,NO,1546737600,93,71.0,24.66,41.0,38.03
106,Tuktoyaktuk,90,CA,1546736400,84,69.44,-133.03,-2.21,2.24
107,Scottsboro,1,US,1546738800,93,34.67,-86.03,47.12,2.59
108,Hobart,40,AU,1546738200,35,-42.88,147.33,69.8,16.11
109,Geraldton,90,CA,1546736400,67,49.72,-86.95,21.2,9.17
110,Pedernales,92,EC,1546739564,97,0.07,-80.05,74.68,3.71
111,Cuamba,56,MZ,1546739664,99,-14.8,36.54,69.82,3.49
112,Takoradi,64,GH,1546739664,100,4.89,-1.75,81.52,10.09
113,Jamestown,0,AU,1546739352,32,-33.21,138.6,76.25,8.86
114,Toora-Khem,68,RU,1546739665,53,52.47,96.11,-21.13,2.26
115,Thompson,5,CA,1546736400,83,55.74,-97.86,-13.01,2.24
116,Bredasdorp,0,ZA,1546736400,82,-34.53,20.04,57.2,3.36
117,Atuona,80,PF,1546739323,100,-9.8,-139.03,80.62,14.45
118,Castro,90,CL,1546736400,81,-42.48,-73.76,53.6,3.36
119,Hay River,90,CA,1546737240,84,60.82,-115.79,6.8,9.17
120,Prata,68,BR,1546739448,86,-19.31,-48.92,71.39,9.31
121,Waingapu,36,ID,1546739342,84,-9.65,120.26,83.68,2.71
122,Pisco,0,PE,1546736400,83,-13.71,-76.2,71.6,16.11
123,Khatanga,36,RU,1546739350,45,71.98,102.47,-28.15,3.04
124,Thinadhoo,44,MV,1546739667,100,0.53,72.93,82.51,13.0
125,Galle,1,US,1546739460,46,29.74,-97.91,60.98,5.84
126,Murgab,0,TM,1546739667,91,37.5,61.97,38.14,13.11
127,Muli,0,IN,1546739667,70,22.62,71.45,53.84,10.2
128,Sinnamary,92,GF,1546739375,100,5.38,-52.96,75.76,8.19
129,Bom Jesus,40,BR,1546736400,78,-5.99,-35.58,82.4,8.05
130,Arman,44,RU,1546739668,58,59.7,150.17,-7.18,14.45
131,Lavrentiya,0,RU,1546739330,80,65.58,-170.99,-1.06,18.14
132,Ancud,90,CL,1546736400,81,-41.87,-73.83,53.6,3.36
133,Waipawa,0,NZ,1546739412,41,-39.94,176.59,79.18,20.83
134,Chernyakhovsk,48,RU,1546739669,81,54.64,21.81,19.6,10.2
135,Victoria,75,BN,1546738200,66,5.28,115.24,87.8,6.93
136,Kampene,88,CD,1546739670,99,-3.59,26.67,68.02,1.92
137,Kavaratti,8,IN,1546739343,100,10.57,72.64,81.25,5.39
138,Hami,76,CN,1546739441,68,42.84,93.51,11.05,7.4
139,Aklavik,90,CA,1546736400,77,68.22,-135.01,-2.21,4.7
140,Mega,32,ET,1546739670,33,4.06,38.32,55.42,7.29
141,Freeport,48,BS,1546739671,100,26.54,-78.7,73.33,10.98
142,Markova,24,RU,1546739671,70,52.21,104.21,-16.63,1.81
143,College,32,US,1546736280,70,64.86,-147.8,-31.55,3.15
144,Suriapet,0,IN,1546739671,86,17.15,79.62,66.31,6.29
145,Vardo,1,US,1546737600,54,39.62,-77.74,51.8,4.7
146,Zaysan,0,KZ,1546739378,54,47.47,84.87,-6.78,3.15
147,Narsaq,80,GL,1546739401,72,60.91,-46.05,9.16,3.04
148,Oistins,40,BB,1546736400,83,13.07,-59.53,77.0,17.22
149,Kenora,90,CA,1546738560,78,49.76,-94.48,15.8,12.75
150,Hasaki,75,JP,1546738200,38,35.73,140.83,41.0,11.41
151,Sur,0,OM,1546739381,100,22.57,59.53,70.63,7.18
152,Mayo,90,CA,1546737780,75,63.59,-135.9,-18.41,2.24
153,Port Lincoln,0,AU,1546739378,79,-34.72,135.86,69.37,7.96
154,Bambous Virieux,40,MU,1546736400,83,-20.34,57.76,80.6,11.41
155,Kruisfontein,8,ZA,1546739367,90,-34.0,24.73,62.44,7.74
156,Picota,20,PE,1546736400,290,-6.92,-76.33,62.6,3.36
157,Klaksvik,48,FO,1546737600,70,62.23,-6.59,42.8,18.34
158,Ayan,24,TR,1546739397,68,40.67,33.6,6.55,2.04
159,Chingirlau,80,KZ,1546739674,95,51.09,54.08,23.47,8.63
160,Zambezi,92,ZM,1546739674,98,-13.55,23.12,65.23,7.63
161,Praia da Vitoria,75,PT,1546736400,93,38.73,-27.07,62.6,31.34
162,Tokmak,64,UA,1546739675,86,47.26,35.7,12.13,7.96
163,Te Anau,92,NZ,1546739451,100,-45.41,167.72,52.04,3.15
164,Inhambane,88,MZ,1546739442,100,-23.87,35.38,74.05,10.65
165,Mahebourg,40,MU,1546736400,83,-20.41,57.7,80.6,11.41
166,Iqaluit,40,CA,1546736400,76,63.75,-68.52,-9.41,5.82
167,Enshi,76,CN,1546739676,87,30.29,109.48,33.91,3.15
168,Kendari,20,ID,1546739496,72,-3.99,122.52,87.64,2.93
169,Mar del Plata,0,AR,1546739347,45,-46.43,-67.52,64.1,28.32
170,Forestville,90,CA,1546736400,92,48.74,-69.09,28.4,3.36
171,Mkokotoni,40,TZ,1546736400,94,-5.88,39.25,78.8,5.82
172,Pangoa,20,PE,1546739676,91,-12.12,-73.0,66.94,2.37
173,Saint-Philippe,90,CA,1546738500,95,45.36,-73.48,35.6,4.94
174,Farafangana,56,MG,1546739677,100,-22.82,47.83,78.01,5.61
175,Chulucanas,56,PE,1546739677,70,-5.1,-80.16,77.74,7.4
176,Kimbe,88,PG,1546739677,100,-5.56,150.15,77.87,9.64
177,Hualmay,88,PE,1546739375,100,-11.1,-77.61,65.72,2.37
178,Lata,92,IN,1546739327,100,30.78,78.62,30.49,1.59
179,Bonavista,68,CA,1546739456,99,48.65,-53.11,29.95,4.72
180,Melilla,75,EC,1546736400,83,-0.8,-80.23,77.0,5.82
181,Juba,68,EE,1546735800,77,57.82,26.93,5.0,2.24
182,Lompoc,90,US,1546738140,86,34.64,-120.46,51.98,4.7
183,Warmbad,80,DE,1546737600,93,50.67,13.08,37.4,10.29
184,Terney,0,RU,1546739679,100,45.05,136.61,15.55,19.48
185,Kijang,0,KR,1546736400,34,35.24,129.21,33.8,6.93
186,Zhigansk,56,RU,1546739486,76,66.77,123.37,-17.26,10.87
187,Kodiak,1,US,1546737300,49,39.95,-94.76,46.4,2.82
188,Verkhnevilyuysk,68,RU,1546739413,80,63.45,120.31,-4.53,5.73
189,Gao,32,ML,1546739680,56,16.28,-0.04,57.8,10.09
190,Clyde River,75,CA,1546736400,82,70.47,-68.59,-23.81,2.24
191,Broome,80,GB,1546737600,93,52.47,1.45,42.08,3.36
192,Suez,0,EG,1546739681,74,29.97,32.54,36.92,6.73
193,Aldan,48,RU,1546739681,63,58.61,125.39,-0.57,4.27
194,Hithadhoo,88,MV,1546739356,100,-0.6,73.08,79.81,6.29
195,Saint-Leu,0,RE,1546738200,69,-21.15,55.28,80.6,6.93
196,Tenenkou,36,ML,1546739681,49,14.46,-4.91,60.55,10.87
197,Merauke,92,ID,1546739458,100,-8.49,140.4,79.49,14.23
198,Fortuna,0,ES,1546736400,32,38.18,-1.13,55.4,10.29
199,Leningradskiy,20,RU,1546739323,84,69.38,178.42,-9.12,17.69
200,Bambari,8,CF,1546739682,84,5.77,20.68,67.34,2.71
201,Chuy,0,UY,1546739320,86,-33.69,-53.46,66.89,13.78
202,Lebu,0,ET,1546739393,49,8.96,38.73,30.04,2.71
203,Turki,68,RU,1546739683,92,51.98,43.27,20.77,7.4
204,San Cristobal,20,EC,1546736400,87,-0.39,-78.55,59.0,5.82
205,Pevek,56,RU,1546739378,100,69.7,170.27,-20.55,4.5
206,Ust-Nera,36,RU,1546739684,0,64.57,143.24,-46.51,0.92
207,Buckeye,75,US,1546737300,50,33.37,-112.58,60.98,6.93
208,Katobu,24,ID,1546739684,80,-4.94,122.53,87.46,3.6
209,Russell,0,AR,1546739353,66,-33.01,-68.8,61.85,1.48
210,Ternate,20,PH,1546736400,65,14.29,120.72,82.4,6.93
211,Temyasovo,90,RU,1546738200,84,52.99,58.1,6.8,11.18
212,Taytay,48,PH,1546739685,89,10.83,119.52,80.71,21.5
213,Smirnykh,32,RU,1546739478,47,49.74,142.83,2.45,14.67
214,Saint-Georges,88,CA,1546739400,97,46.12,-70.67,29.86,2.71
215,Phayao,56,TH,1546739686,70,19.17,99.9,74.54,4.05
216,Los Llanos de Aridane,0,ES,1546738200,33,28.66,-17.92,62.6,5.82
217,Kibala,0,TD,1546736400,31,9.11,18.35,73.4,5.61
218,Korsakovo,68,RU,1546739686,87,53.27,37.36,16.0,1.59
219,Vanavara,44,RU,1546739565,63,60.35,102.28,-8.35,7.4
220,Tongren,88,CN,1546739687,100,27.72,109.18,34.09,3.83
221,Margate,40,AU,1546738200,35,-43.03,147.26,69.8,16.11
222,Mathbaria,0,BD,1546739688,67,22.29,89.96,67.7,4.5
223,Buchanan,20,LR,1546738200,94,5.88,-10.05,75.2,1.59
224,Chenzhou,68,CN,1546739688,100,25.81,113.03,39.76,3.49
225,Katsuura,75,JP,1546736400,93,33.93,134.5,42.8,5.82
226,Grand-Santi,64,GF,1546739522,73,4.27,-54.38,78.77,3.94
227,Ilulissat,0,GL,1546735800,65,69.22,-51.1,8.6,16.11
228,Yellowknife,90,CA,1546736400,84,62.45,-114.38,1.4,4.7
229,San Jose,12,PH,1546739690,76,15.79,120.99,78.82,4.38
230,Bafata,44,GW,1546739690,54,12.17,-14.67,62.98,7.07
231,Xochihuehuetlan,0,MX,1546739690,74,17.92,-98.43,61.4,2.15
232,Salinopolis,80,BR,1546739409,100,-0.61,-47.36,78.28,11.43
233,Puerto Ayora,0,EC,1546739377,100,-0.74,-90.35,76.75,9.31
234,Kieta,80,PG,1546739691,82,-6.22,155.63,86.29,12.77
235,Talnakh,68,RU,1546739382,76,69.49,88.39,-0.7,21.27
236,Kloulklubed,75,PW,1546735800,79,7.04,134.26,84.2,11.41
237,Kourou,75,GF,1546738200,94,5.16,-52.64,77.0,2.24
238,Sault Sainte Marie,40,CA,1546739460,80,46.49,-84.36,35.6,14.99
239,Vao,76,EE,1546739574,87,59.1,26.19,18.07,3.15
240,Ellisras,32,ZA,1546739692,95,-23.67,27.74,64.78,4.94
241,Grindavik,75,IS,1546738200,74,63.84,-22.43,37.4,25.28
242,Lypova Dolyna,76,UA,1546739693,91,50.56,33.8,21.22,8.41
243,Rock Springs,90,US,1546736040,77,41.59,-109.2,21.02,3.36
244,Sitka,0,US,1546739379,65,37.17,-99.65,40.03,10.76
245,Formosa,0,AR,1546736400,94,-26.19,-58.17,77.0,5.82
246,San-Pedro,56,CI,1546739694,95,4.75,-6.64,76.84,6.73
247,Juuru,90,EE,1546737600,85,59.06,24.96,24.8,3.36
248,Hofn,24,IS,1546739443,97,64.25,-15.21,40.57,26.42
249,Sola,90,NO,1546737600,93,58.89,5.65,46.4,12.75
250,Umm Kaddadah,0,SD,1546739694,43,13.6,26.69,60.01,12.21
251,Ostrovnoy,64,RU,1546739489,89,68.05,39.51,15.32,15.01
252,Kuznechnoye,56,RU,1546739695,75,61.12,29.87,5.69,3.6
253,Yamada,75,JP,1546736400,80,36.58,137.08,37.4,5.82
254,Pecos,1,US,1546737300,29,31.42,-103.49,52.52,3.6
255,Ayagoz,32,KZ,1546739696,52,47.96,80.43,-10.96,3.6
256,Sao Jose de Piranhas,88,BR,1546739696,90,-7.12,-38.5,67.97,1.81
257,Kavieng,56,PG,1546739359,96,-2.57,150.8,85.52,17.36
258,Paciran,0,ID,1546739696,78,-6.9,112.33,87.82,4.38
259,Nome,1,US,1546737300,74,30.04,-94.42,54.32,4.7
260,Ventspils,90,LV,1546737600,86,57.39,21.56,28.4,2.24
261,Sal Rei,0,CV,1546736400,68,16.18,-22.92,69.8,11.41
262,Namikupa,12,MZ,1546739697,96,-10.84,39.63,73.06,3.71
263,Vila Franca do Campo,75,PT,1546736400,93,37.72,-25.43,62.6,23.04
264,Mattru,56,SL,1546739698,87,7.62,-11.83,73.87,2.37
265,Oriximina,92,BR,1546739698,100,-1.77,-55.87,71.89,3.6
266,Srostki,88,RU,1546739698,72,52.42,85.7,-2.41,1.59
267,Tual,80,ID,1546739698,100,-5.67,132.75,80.75,14.79
268,Wanaka,92,NZ,1546739699,100,-44.7,169.14,57.94,2.59
269,Santa Barbara,90,US,1546738500,89,34.42,-119.7,57.02,20.8
270,Brawley,90,US,1546736160,83,32.98,-115.53,46.94,8.05
271,Meulaboh,68,ID,1546739431,100,4.14,96.13,80.17,5.95
272,Haines Junction,20,CA,1546739431,52,60.75,-137.51,-20.5,1.81
273,Kumano,75,JP,1546736400,64,34.34,132.59,46.94,8.05
274,Beringovskiy,92,RU,1546739458,89,63.05,179.32,23.69,36.37
275,Slave Lake,90,CA,1546736400,100,55.28,-114.77,21.2,17.22
276,Pangkalanbuun,36,ID,1546739690,92,-2.68,111.62,82.42,5.17
277,Betsiamites,90,CA,1546738740,100,48.94,-68.65,28.4,3.36
278,Atasu,0,KZ,1546739699,29,48.68,71.64,-20.55,2.93
279,Arroio dos Ratos,0,BR,1546736400,78,-30.09,-51.73,73.4,12.75
280,Sabha,0,LY,1546739701,80,27.03,14.43,26.84,4.05
281,Whitehorse,20,CA,1546736400,75,60.72,-135.06,-13.01,2.24
282,Boralday,90,KZ,1546738200,92,43.36,76.86,21.2,4.47
283,Maumere,76,ID,1546739582,99,-8.63,122.22,82.6,2.59
284,Whitianga,0,NZ,1546739702,83,-36.83,175.7,75.13,12.55
285,Boende,88,CD,1546739587,99,-0.28,20.88,70.36,2.48
286,Port Hardy,90,CA,1546736400,100,50.7,-127.42,37.4,6.93
287,Jieshi,88,CN,1546739702,97,22.82,115.83,62.44,7.85
288,Santa Rosa,92,AR,1546739704,98,-36.62,-64.29,67.39,8.41
289,Golden,80,CA,1546739704,96,51.3,-116.96,15.82,1.92
290,Isangel,56,VU,1546739373,99,-19.55,169.27,79.04,19.48
291,San Carlos de Bariloche,0,AR,1546739704,57,-41.13,-71.31,53.57,3.83
292,Nowy Dwor Mazowiecki,75,PL,1546738200,74,52.43,20.72,28.4,12.75
293,Vung Tau,0,VN,1546739705,89,10.35,107.08,82.55,24.07
294,Fuling,24,CN,1546739705,100,29.71,107.39,38.95,3.49
295,Alihe,8,CN,1546739705,56,50.57,123.73,-6.46,3.6
296,Novyy Buh,75,UA,1546738200,85,47.69,32.52,21.2,4.47
297,Guanica,1,PR,1546735800,73,17.97,-66.91,73.4,8.05
298,Rio Gallegos,40,AR,1546736400,35,-51.62,-69.22,55.4,18.34
299,Khorinsk,32,RU,1546739706,56,52.16,109.78,-21.09,2.37
300,Hwange,0,ZW,1546739706,88,-18.35,26.5,66.17,3.04
301,Fairbanks,32,US,1546736280,70,64.84,-147.72,-31.55,3.15
302,Tautira,75,PF,1546738200,62,-17.73,-149.15,89.6,6.93
303,General Pico,56,AR,1546739707,53,-35.66,-63.75,85.7,15.9
304,Camacha,75,PT,1546736400,63,33.08,-16.33,62.6,10.29
305,Saint Anthony,40,US,1546736160,71,43.97,-111.68,39.02,9.42
306,Yar-Sale,0,RU,1546739370,95,66.83,70.83,0.61,21.5
307,Tiznit,56,MA,1546739385,71,29.7,-9.73,50.29,3.6
308,Calbe,75,DE,1546737600,86,51.9,11.78,39.2,11.41
309,Ipubi,80,BR,1546739708,45,-7.65,-40.15,77.56,6.73
310,Zyryanka,44,RU,1546739708,72,65.73,150.89,-16.18,2.71
311,Scottsbluff,1,US,1546735980,49,41.87,-103.67,39.92,6.93
312,Norman Wells,90,CA,1546736400,84,65.28,-126.83,1.4,2.82
313,Sao Felix do Xingu,24,BR,1546739709,98,-6.64,-51.99,74.14,1.92
314,Mareeba,90,AU,1546738200,62,-16.99,145.42,86.0,12.75
315,Lagoa,0,PT,1546736400,70,37.14,-8.45,44.6,4.7
316,San Matias,40,HN,1546736400,64,13.97,-86.63,71.6,16.11
317,Esso,80,RU,1546739709,68,55.93,158.7,-18.21,2.37
318,Constitucion,75,MX,1546735680,19,23.99,-104.67,68.0,13.87
319,Barmer,0,IN,1546739710,95,25.74,71.4,48.13,9.86
320,Cehegin,0,ES,1546739710,68,38.09,-1.8,23.69,2.82
321,Luganville,12,VU,1546739710,97,-15.51,167.18,83.45,10.2
322,Alice,1,US,1546738500,84,27.75,-98.07,62.96,4.7
323,Pahrump,90,US,1546738080,88,36.21,-115.98,45.14,13.87
324,Paamiut,64,GL,1546739406,98,61.99,-49.67,31.34,26.87
325,Serebryanyy Bor,0,RU,1546739711,68,56.8,124.8,-11.37,2.37
326,East London,24,ZA,1546739334,100,-33.02,27.91,68.15,21.16
327,Araouane,56,ML,1546739712,32,18.9,-3.53,55.55,11.21
328,Springfield,1,US,1546738500,50,37.22,-93.29,53.6,3.83
329,Rome,0,IT,1546737600,91,41.89,12.48,41.0,2.24
330,Newcastleton,88,GB,1546735800,93,55.18,-2.81,39.2,11.41
331,Nalut,0,LY,1546739449,72,31.86,10.98,25.0,3.71
332,Ikom,0,NG,1546739713,90,5.96,8.72,68.83,5.73
333,Lazaro Cardenas,40,MX,1546735380,33,28.39,-105.62,57.2,2.26
334,Garissa,48,KE,1546739559,97,-0.46,39.64,69.1,3.04
335,Faanui,68,PF,1546739357,99,-16.48,-151.75,85.25,9.53
336,Tikhvin,56,RU,1546739713,83,59.64,33.53,13.25,2.37
337,Zheleznodorozhnyy,75,RU,1546738200,85,55.75,38.0,19.4,4.47
338,Cedar City,90,US,1546735980,69,37.68,-113.06,37.94,16.11
339,Sobolevo,68,RU,1546739419,86,54.43,31.9,17.62,11.99
340,Mushie,92,CD,1546739714,100,-3.02,16.92,70.0,3.49
341,Karancslapujto,90,HU,1546738200,69,48.15,19.73,33.8,4.7
342,Los Palacios,56,CU,1546739715,95,22.59,-83.25,70.4,4.94
343,Aguilar de la Frontera,0,ES,1546738200,75,37.51,-4.66,32.0,3.36
344,Goderich,92,CA,1546739449,88,43.74,-81.71,37.33,16.58
345,Gorom-Gorom,20,BF,1546739715,41,14.45,-0.24,57.89,11.77
346,Gondanglegi,0,ID,1546739715,60,-7.75,112.01,87.14,3.6
347,Vahan,20,AZ,1546739716,81,40.58,45.4,21.94,3.04
348,Hambantota,20,LK,1546737000,100,6.12,81.12,71.6,8.05
349,Namatanai,64,PG,1546739454,100,-3.66,152.44,83.32,15.57
350,Yulara,0,AU,1546736400,20,-25.24,130.99,82.4,14.99
351,Nizwa,0,OM,1546739407,81,22.93,57.53,51.91,2.37
352,Bagdarin,20,RU,1546739366,35,54.44,113.59,-26.53,2.37
353,Elko,90,US,1546736160,60,40.83,-115.76,30.92,6.93
354,Zalaszentgrot,0,HU,1546737300,93,46.94,17.08,33.8,11.41
355,Komsomolskiy,48,RU,1546739438,77,67.55,63.78,1.96,18.81
356,Bathsheba,40,BB,1546736400,83,13.22,-59.52,77.0,17.22
357,Fort Morgan,80,US,1546739400,37,40.25,-103.8,42.98,9.17
358,Coahuayana,32,MX,1546739402,73,18.62,-100.35,61.94,1.92
359,Itaituba,36,BR,1546739718,93,-4.26,-55.99,75.8,2.71
360,Aksu,0,KZ,1546738200,91,52.04,76.93,-4.01,6.71
361,Dingle,20,PH,1546739423,77,11.0,122.67,79.67,17.02
362,Rawson,0,AR,1546739383,31,-43.3,-65.11,72.65,6.73
363,Altay,32,CN,1546739412,69,47.83,88.13,-5.7,2.93
364,Ajdabiya,92,LY,1546739589,91,30.75,20.22,49.03,9.42
365,The Pas,1,CA,1546736400,83,53.82,-101.24,-9.41,5.61
366,Chojnow,75,PL,1546738200,99,51.27,15.94,32.0,11.41
367,Rutul,90,RU,1546736400,100,41.53,47.42,37.4,9.17
368,Kljuc,0,HR,1546738200,56,43.85,16.03,42.8,13.87
369,Awbari,0,LY,1546739720,71,26.59,12.77,26.12,4.5
370,Khuzdar,0,PK,1546739562,81,27.8,66.62,27.16,2.37
371,Inverell,8,AU,1546739391,52,-29.78,151.11,84.62,3.6
372,Shache,20,CN,1546739587,77,38.42,77.24,8.57,4.61
373,Umm Lajj,32,SA,1546739372,100,25.02,37.27,61.9,8.63
374,Cherskiy,32,RU,1546739319,48,68.75,161.3,-29.5,4.61
375,Curico,0,CL,1546736400,53,-34.98,-71.23,71.6,6.93
376,Marshall,1,US,1546738500,90,39.39,-87.69,46.94,8.05
377,Caravelas,8,BR,1546739402,100,-17.73,-39.27,80.39,15.68
378,Tezu,48,IN,1546739388,47,27.93,96.16,54.92,1.59
379,Leshukonskoye,20,RU,1546739721,67,64.9,45.76,-14.88,2.82
380,Kerema,92,PG,1546739722,100,-7.96,145.78,75.8,3.04
381,Harper,1,US,1546738500,72,30.3,-99.24,60.08,9.42
382,Saint-Joseph,8,FR,1546736400,86,43.56,6.97,33.8,1.12
383,Kungurtug,24,RU,1546739722,32,50.6,97.53,-26.31,1.48
384,Karasjok,80,NO,1546737600,70,69.47,25.52,42.8,51.67
385,Flin Flon,0,CA,1546739723,79,54.77,-101.88,-1.51,5.17
386,Vanimo,76,PG,1546739723,100,-2.67,141.3,81.74,21.83
387,Cayenne,75,GF,1546738200,94,4.94,-52.33,77.0,2.24
388,Syracuse,90,US,1546738500,86,43.05,-76.15,37.04,4.7
389,Mount Gambier,90,AU,1546736400,52,-37.83,140.78,66.2,10.29
390,Gopalpur,0,IN,1546739723,69,25.6,86.94,60.37,3.38
391,Modasa,0,IN,1546739724,80,23.47,73.3,53.75,4.94
392,Szigetvar,0,HU,1546739724,87,46.05,17.81,30.58,9.98
393,Berdigestyakh,48,RU,1546739724,63,62.1,126.7,-8.49,3.49
394,Shugurovo,88,RU,1546739724,88,54.51,52.13,23.69,12.21
395,Malabo,0,CD,1546739725,85,1.56,30.43,56.99,3.49
396,Iranshahr,0,IR,1546739526,46,27.21,60.69,33.37,2.93
397,Birao,12,CF,1546739679,52,10.3,22.78,67.07,8.52
398,Naron,0,ES,1546738200,100,43.52,-8.15,30.2,5.82
399,Trat,20,TH,1546736400,94,12.25,102.51,77.0,2.24
400,Ahipara,0,NZ,1546739389,61,-35.17,173.16,74.95,8.19
401,The Valley,20,AI,1546736400,69,18.22,-63.06,78.8,13.87
402,Parana,0,BR,1546736400,100,-7.52,-72.89,73.4,6.06
403,Sudak,92,UA,1546739727,100,44.85,34.97,27.61,6.17
404,Bondo,0,CD,1546739727,95,3.81,23.69,71.71,2.93
405,Gigmoto,88,PH,1546739727,99,13.78,124.39,79.0,16.24
406,Ambilobe,12,MG,1546739727,92,-13.19,49.05,70.9,2.59
407,Port Hawkesbury,90,CA,1546736400,100,45.62,-61.36,33.8,10.29
408,Marks,0,US,1546738500,100,34.26,-90.27,44.6,4.16
409,Grand Gaube,40,MU,1546736400,83,-20.01,57.66,80.6,11.41
410,Nkhata Bay,92,MW,1546739728,97,-11.61,34.3,72.74,3.49
411,Xinzhi,75,TW,1546738200,83,22.54,120.62,73.4,6.93
412,Takhatgarh,76,IN,1546739728,99,25.32,73.0,47.41,5.73
413,Marsh Harbour,24,BS,1546739729,100,26.54,-77.06,73.24,13.11
414,Puerto Escondido,20,MX,1546735500,69,15.86,-97.07,80.6,9.53
415,Kulhudhuffushi,0,MV,1546739729,100,6.62,73.07,80.35,4.38
416,Lima,20,PE,1546736400,88,-12.06,-77.04,71.6,12.75
417,Jumla,80,NP,1546739730,97,29.28,82.18,23.15,1.81
418,Nazarovo,68,RU,1546739730,67,56.01,90.42,2.14,8.97
419,Saurimo,68,AO,1546739730,90,-9.66,20.4,65.95,3.38
420,Tarko-Sale,32,RU,1546739730,81,64.92,77.78,-4.44,13.11
421,Conway,1,US,1546737300,87,35.09,-92.44,48.2,2.59
422,Huilong,92,CN,1546739432,99,28.89,110.18,32.92,3.27
423,Mackenzie,90,CA,1546736400,92,55.34,-123.09,26.6,3.36
424,Esperance,92,TT,1546736400,88,10.24,-61.45,73.4,6.62
425,Wawa,0,NG,1546739731,46,9.9,4.41,65.32,8.41
426,Meleuz,80,RU,1546739732,92,52.96,55.93,20.68,13.78
427,Nicoya,0,CR,1546736400,61,10.15,-85.45,82.4,18.34
428,Rangapara,0,IN,1546739732,58,26.82,92.69,55.42,1.7
429,Svobodnyy,68,RU,1546739732,89,53.85,40.53,18.25,6.17
430,Vila,0,IT,1546737600,79,45.18,8.4,26.6,8.05
431,Port-Gentil,88,GA,1546739394,100,-0.72,8.78,78.77,4.94
432,Nyuksenitsa,64,RU,1546739733,88,60.41,44.24,11.54,7.96
433,Nyurba,56,RU,1546739733,69,63.29,118.35,-1.65,6.17
434,Evensk,12,RU,1546739349,100,61.92,159.24,7.99,22.5
435,Wanning,75,AT,1546737600,100,48.64,13.53,35.6,12.75
436,Touros,40,BR,1546736400,78,-5.2,-35.46,80.6,8.05
437,Flinders,90,AU,1546736400,68,-34.58,150.85,66.2,12.75
438,Kralendijk,0,BQ,1546736100,74,12.15,-68.27,78.8,13.87
439,Loukhi,32,RU,1546739485,83,66.08,33.04,17.44,6.73
440,Kamaishi,40,JP,1546736400,68,39.28,141.86,30.2,2.24
441,Jaguarao,0,BR,1546739735,79,-32.57,-53.38,66.44,13.56
442,Tessalit,24,ML,1546739408,26,20.2,1.01,49.75,6.73
443,Sisimiut,8,GL,1546739735,100,66.94,-53.67,-11.64,2.93
444,Belle Fourche,1,US,1546738500,74,44.67,-103.85,35.6,3.36
445,Preili,76,LV,1546739735,87,56.29,26.72,22.34,11.65
446,Abu Samrah,80,SY,1546739736,94,35.3,37.18,42.19,8.97
447,Barranca,88,PE,1546739736,100,-10.75,-77.76,69.82,3.49
448,Shimanovsk,0,RU,1546739736,47,52.0,127.67,-2.05,4.38
449,Deputatskiy,12,RU,1546739459,0,69.3,139.9,-43.63,2.59
450,Arinos,80,BR,1546739737,73,-15.92,-46.11,72.79,4.61
451,Sioux Lookout,90,CA,1546736400,78,50.1,-91.92,15.8,6.93
452,Novokorsunskaya,75,RU,1546738200,96,45.64,39.14,32.0,6.71
453,Hirara,75,JP,1546736400,100,24.8,125.28,69.8,14.99
454,Svetlogorsk,90,RU,1546738200,84,53.14,59.15,6.8,11.18
455,Launceston,0,AU,1546738200,40,-41.43,147.14,68.0,10.29
456,Victor Harbor,20,AU,1546738200,49,-35.55,138.62,69.8,16.11
457,Larsnes,92,NO,1546737600,100,62.2,5.58,44.6,9.17
458,Veroia,20,GR,1546737600,73,40.52,22.2,21.2,4.7
459,Samarai,56,PG,1546739442,100,-10.62,150.67,80.8,21.05
460,Viedma,12,AR,1546739344,49,-40.81,-62.99,69.55,18.25
461,Garoua,0,CM,1546739739,66,9.31,13.39,60.28,2.82
462,Makakilo City,75,US,1546736220,51,21.35,-158.09,80.96,9.17
463,Tosno,75,RU,1546738200,79,59.54,30.88,19.4,4.47
464,Gamba,0,CN,1546739466,54,28.28,88.52,2.09,6.62
465,Pochinki,88,RU,1546739740,89,54.7,44.85,18.16,8.97
466,Banda Aceh,12,ID,1546739570,70,5.56,95.32,84.22,3.6
467,Urucara,92,BR,1546739740,95,-2.54,-57.76,76.07,1.7
468,Usak,64,TR,1546739740,100,38.67,29.41,26.08,1.92
469,Anloga,24,GH,1546736400,69,5.79,0.9,75.2,5.95
470,Bonthe,76,SL,1546739741,84,7.53,-12.5,79.54,4.5
471,Garowe,0,SO,1546739741,94,8.41,48.48,56.27,6.73
472,Kirakira,56,SB,1546739333,100,-10.46,161.92,83.86,11.65
473,Sulphur Springs,1,US,1546738500,52,33.14,-95.6,55.76,3.36
474,Redwater,90,CA,1546736400,79,53.95,-113.11,24.8,18.34
475,Kununurra,0,AU,1546738200,52,-15.77,128.74,89.6,1.12
476,Yashkul,88,RU,1546739742,86,46.17,45.34,25.94,10.76
477,Abeche,20,TD,1546739742,39,13.83,20.83,63.61,8.08
478,Roncesvalles,40,CO,1546736400,69,4.01,-75.61,78.8,1.59
479,Souillac,90,FR,1546736400,71,45.6,-0.6,37.4,9.17
480,Ixtapa,75,MX,1546735740,78,20.71,-105.21,78.8,4.7
481,Husavik,8,CA,1546739350,71,50.56,-96.99,1.19,7.07
482,Dosso,8,NE,1546739743,39,13.05,3.19,59.29,12.21
483,Svitavy,75,CZ,1546736400,86,49.76,16.47,35.6,2.24
484,Pangody,24,RU,1546739649,73,65.85,74.49,0.65,18.59
485,Mount Pleasant,1,US,1546738500,58,33.16,-94.97,55.76,6.06
486,Morant Bay,20,JM,1546736400,65,17.88,-76.41,78.8,5.82
487,Madimba,20,CM,1546736400,100,4.42,9.93,78.8,3.36
488,Santa Maria,88,BR,1546739543,86,-29.69,-53.81,74.05,8.97
489,Laguna,90,MX,1546735440,40,27.52,-110.01,69.8,2.24
490,Lasa,40,CY,1546735800,71,34.92,32.53,55.4,11.41
491,Arrifes,75,PT,1546736400,93,37.77,-25.7,62.6,23.04
492,Faya,0,SA,1546736400,76,18.39,42.45,53.6,8.05
493,Vila Velha,75,BR,1546736400,83,-3.71,-38.6,82.4,16.11
494,Hervey Bay,40,AU,1546736400,58,-25.3,152.85,84.2,18.34
495,Ornskoldsvik,8,SE,1546737600,92,63.29,18.72,30.2,3.36
496,Road Town,20,VG,1546736400,69,18.42,-64.62,78.98,11.41
497,Xuddur,80,SO,1546739747,68,4.12,43.89,70.0,12.44
498,La Mesa,90,US,1546736160,68,32.77,-117.02,59.0,5.82
499,Romitan,0,UZ,1546738200,86,39.93,64.38,33.8,6.93
500,Kargasok,76,RU,1546739584,84,59.06,80.87,9.88,4.83
501,Shahreza,0,IR,1546739748,30,32.01,51.87,28.6,8.08
502,Abnub,0,EG,1546736400,75,27.27,31.15,42.8,6.93
503,Manali,64,IN,1546739748,76,32.25,77.19,-1.51,0.69
504,Arlit,20,NE,1546739589,73,18.74,7.39,48.31,6.51
505,Duluth,1,US,1546739700,88,46.77,-92.13,32.0,3.36
506,Sherpur,0,BD,1546739749,91,25.02,90.01,61.94,3.71
507,Alofi,92,NU,1546736400,94,-19.06,-169.92,75.2,10.29
508,Bilma,20,NE,1546739368,33,18.69,12.92,50.15,13.0
509,Salalah,0,OM,1546735800,44,17.01,54.1,75.2,9.17
510,Capim Grosso,80,BR,1546739675,97,-11.38,-40.01,66.8,2.71
511,Turayf,0,SA,1546736400,93,31.68,38.65,41.0,6.93
512,Byron Bay,40,AU,1546738200,61,-28.65,153.62,87.8,11.41
513,Batemans Bay,8,AU,1546739523,73,-35.71,150.18,70.99,5.61
514,Erzin,75,TR,1546737600,81,36.95,36.2,48.2,8.05
515,Pryazha,56,RU,1546736400,91,61.69,33.62,3.2,4.47
516,Hoquiam,90,US,1546735980,89,46.98,-123.89,46.04,11.41
517,Bandarbeyla,20,SO,1546739329,100,9.49,50.81,75.58,16.13
518,Muros,0,ES,1546736400,100,42.77,-9.06,42.8,1.12
519,Codrington,0,AU,1546736400,48,-28.95,153.24,87.8,10.29
520,Hoopstad,0,ZA,1546739751,75,-27.83,25.91,61.04,6.4
521,Palmas,56,BR,1546739751,98,-10.18,-48.33,71.44,3.38
522,Zenzeli,56,RU,1546739752,84,45.92,47.05,28.55,9.75
523,Marsa Matruh,0,EG,1546736400,81,31.35,27.25,46.4,19.46
524,Sorong,12,ID,1546739520,100,-0.86,131.25,82.87,3.71
525,Mehamn,92,NO,1546739577,95,71.03,27.85,38.99,16.24
526,Vilhena,20,BR,1546739752,93,-12.74,-60.15,72.52,1.14
527,Marawi,80,PH,1546739500,52,8.0,124.29,84.4,3.49
528,Benalla,0,AU,1546736400,27,-36.55,145.99,75.2,10.29
529,Neiafu,90,TO,1546736400,94,-18.65,-173.98,75.2,14.99
530,Lorengau,48,PG,1546739457,93,-2.02,147.27,85.48,21.5
531,Cidreira,100,BR,1546739393,79,-30.17,-50.22,73.24,17.58
532,Sontra,75,DE,1546737600,81,51.07,9.94,44.6,11.41
533,Jacmel,0,HT,1546739754,100,18.24,-72.54,77.24,3.49
534,Puerto del Rosario,0,ES,1546738200,68,28.5,-13.86,66.2,11.41
535,Namibe,88,AO,1546739359,100,-15.19,12.15,74.54,3.6
536,Northam,92,GB,1546735800,81,51.04,-4.21,46.4,3.36
537,Batsfjord,92,NO,1546739755,100,70.63,29.72,39.31,14.79
538,Tramandai,100,BR,1546739755,79,-29.98,-50.13,73.24,17.58
539,Douentza,24,ML,1546739567,44,15.01,-2.95,53.62,7.07
540,Pangai,100,TO,1546739756,100,-19.8,-174.35,74.9,30.78
541,Lewiston,1,US,1546736160,48,46.42,-117.02,42.98,6.93
542,Zhanaozen,44,KZ,1546739386,88,43.35,52.85,28.51,10.65
543,Yenagoa,0,NG,1546739756,84,4.92,6.26,75.58,7.07
544,Borovoy,56,RU,1546739757,80,63.23,52.89,3.89,3.04
545,Merritt,76,CA,1546739757,56,50.11,-120.79,36.2,5.17
546,Antofagasta,20,CL,1546736400,77,-23.65,-70.4,68.0,5.82
547,Pansemal,0,IN,1546739757,69,21.66,74.7,53.84,2.59
548,Clarksburg,40,US,1546738500,80,39.28,-80.34,44.06,8.05
549,Nurota,8,UZ,1546738200,86,40.56,65.69,33.8,11.41
550,Sydney,75,AU,1546738200,82,-33.85,151.22,68.0,16.11
551,Cap Malheureux,40,MU,1546736400,83,-19.98,57.61,80.6,11.41
552,Matara,56,PE,1546739403,87,-13.74,-72.9,45.47,1.92
